,City Name,Country,Date,Main Temp. (in F),Max Temp. (in F),Cloudiness (in %),Humidity (in %),Wind Speed (in MPH),Latitude,Longitude
0,Fengzhen,CN,1532356401,67.15,67.15,0,79,5.37,40.43,113.15
1,Puri,ID,1532350800,82.4,82.4,20,74,11.41,-7.54,112.45
2,Jamestown,AU,1532356401,52.12,52.12,20,73,13.65,-33.21,138.6
3,Pedra Azul,BR,1532356402,71.29,71.29,44,67,8.95,-16.01,-41.28
4,Labuhan,ID,1532356402,73.72,73.72,8,89,3.02,-2.54,115.51
5,Busselton,AU,1532356402,62.74,62.74,88,100,18.79,-33.64,115.35
6,Ketchikan,US,1532354340,54.18,55.4,90,93,4.7,55.34,-131.65
7,Rikitea,PF,1532356402,74.62,74.62,36,99,20.02,-23.12,-134.97
8,Boysun,UZ,1532356403,79.39,79.39,0,21,2.24,38.2,67.2
9,Arraial do Cabo,BR,1532354400,77.88,78.8,20,74,9.17,-22.97,-42.02
10,Denpasar,ID,1532352600,78.8,78.8,20,78,13.87,-8.65,115.22
11,Punta Arenas,CL,1532354400,39.2,39.2,75,93,23.04,-53.16,-70.91
12,Hermanus,ZA,1532356403,78.94,78.94,0,24,11.52,-34.42,19.24
13,Puerto Ayora,EC,1532354400,75.2,75.2,40,69,13.87,-0.74,-90.35
14,Port Alfred,ZA,1532356404,76.51,76.51,0,46,3.02,-33.59,26.89
15,Bluff,AU,1532356404,45.1,45.1,0,88,4.14,-23.58,149.07
16,Sahuaripa,MX,1532356404,85.69,85.69,0,42,1.68,29.05,-109.23
17,Yellowknife,CA,1532354400,57.2,57.2,90,71,4.7,62.45,-114.38
18,Mar del Plata,AR,1532356405,49.78,49.78,0,57,16.78,-46.43,-67.52
19,Strzelin,PL,1532356200,82.4,82.4,0,39,10.29,50.78,17.07
20,Port Elizabeth,US,1532354880,79.86,80.6,75,78,13.87,39.31,-74.98
21,Provideniya,RU,1532356405,46.0,46.0,88,100,3.69,64.42,-173.23
22,Siyabuswa,ZA,1532356405,67.33,67.33,0,26,3.69,-25.11,29.06
23,Albany,US,1532355360,75.15,78.8,90,83,4.7,42.65,-73.75
24,Nanortalik,GL,1532356406,41.41,41.41,0,98,3.58,60.14,-45.24
25,Ostrovnoy,RU,1532356406,80.11,80.11,0,49,19.46,68.05,39.51
26,Seoul,KR,1532354400,82.36,86.0,0,74,4.7,37.57,126.98
27,Hilo,US,1532354760,65.89,75.2,90,94,4.7,19.71,-155.08
28,Vaini,IN,1532356406,70.93,70.93,92,98,8.16,15.34,74.49
29,Necochea,AR,1532356407,46.0,46.0,0,86,13.2,-38.55,-58.74
30,Itacarambi,BR,1532356407,80.56,80.56,0,43,8.72,-15.1,-44.09
31,Vila Franca do Campo,PT,1532354400,80.6,80.6,20,61,11.41,37.72,-25.43
32,Rio Gallegos,AR,1532354400,42.8,42.8,0,60,12.75,-51.62,-69.22
33,Somerset,US,1532354100,68.52,71.6,90,94,6.93,37.09,-84.6
34,Ushuaia,AR,1532354400,41.18,42.8,20,89,10.29,-54.81,-68.31
35,Kyabe,TD,1532356408,83.35,83.35,12,88,9.84,9.45,18.94
36,Sola,NO,1532355600,67.8,69.8,75,77,16.11,58.89,5.65
37,Dikson,RU,1532356408,43.03,43.03,64,100,9.17,73.51,80.55
38,Baruun-Urt,MN,1532356408,62.56,62.56,92,100,9.73,46.68,113.28
39,Atuona,PF,1532356409,75.79,75.79,100,100,14.09,-9.8,-139.03
40,Prieska,ZA,1532356409,67.87,67.87,32,28,9.17,-29.67,22.74
41,Victoria,BN,1532352600,83.32,84.2,75,88,1.12,5.28,115.24
42,Yerbogachen,RU,1532356410,50.5,50.5,64,65,4.92,61.28,108.01
43,Tanabe,JP,1532356410,78.85,78.85,0,89,4.36,33.73,135.39
44,Tuktoyaktuk,CA,1532354400,64.4,64.4,20,72,9.17,69.44,-133.03
45,Wajima,JP,1532356410,77.23,77.23,12,96,3.24,37.4,136.9
46,Madang,PG,1532356410,75.79,75.79,68,98,2.13,-5.21,145.81
47,Cherskiy,RU,1532356411,65.62,65.62,64,46,8.39,68.75,161.3
48,Nisia Floresta,BR,1532354400,84.2,84.2,40,45,24.16,-6.09,-35.21
49,Saskylakh,RU,1532356411,37.54,37.54,80,75,11.74,71.97,114.09
50,Pirapemas,BR,1532356411,86.95,86.95,32,78,6.26,-3.73,-44.23
51,Isla Mujeres,MX,1532353620,84.2,84.2,40,83,3.36,21.23,-86.73
52,Narsaq,GL,1532353800,59.0,59.0,5,44,5.82,60.91,-46.05
53,Esperance,TT,1532354400,86.0,86.0,40,66,12.75,10.24,-61.45
54,Half Moon Bay,US,1532354880,60.49,62.6,90,93,5.82,37.46,-122.43
55,Mataura,NZ,1532356412,37.54,37.54,56,92,3.36,-46.19,168.86
56,Usinsk,RU,1532356412,81.37,81.37,0,32,7.72,66.0,57.56
57,Lagos,NG,1532354400,84.2,84.2,75,79,6.93,6.46,3.39
58,Matay,EG,1532356413,100.09,100.09,0,24,10.96,28.42,30.79
59,Ribeira Grande,PT,1532354400,75.2,75.2,20,78,8.05,38.52,-28.7
60,Hasaki,JP,1532355060,76.82,78.8,75,94,6.93,35.73,140.83
61,Onega,RU,1532356413,72.1,72.1,76,66,4.03,63.91,38.09
62,Sombrio,BR,1532356413,64.72,64.72,32,89,5.59,-29.11,-49.63
63,Airai,TL,1532356413,58.96,58.96,0,80,2.13,-8.93,125.41
64,Deputatskiy,RU,1532356414,44.92,44.92,92,99,7.38,69.3,139.9
65,Burnie,AU,1532356414,52.3,52.3,92,100,32.55,-41.05,145.91
66,Upernavik,GL,1532356414,40.15,40.15,76,89,5.7,72.79,-56.15
67,Marzuq,YE,1532356414,86.05,86.05,68,25,2.91,14.4,46.47
68,Barrow,AR,1532356414,42.94,42.94,0,70,11.41,-38.31,-60.23
69,Baiyin,CN,1532354400,60.8,60.8,0,100,2.91,36.55,104.13
70,Ulaangom,MN,1532356415,56.89,56.89,0,59,2.57,49.98,92.07
71,Cape Town,ZA,1532354400,71.6,71.6,0,40,14.99,-33.93,18.42
72,Avarua,CK,1532354400,69.8,69.8,75,88,2.24,-21.21,-159.78
73,Kharsia,IN,1532356415,75.16,75.16,92,97,11.63,21.99,83.11
74,Puerto Colombia,CO,1532354400,84.2,84.2,40,79,6.93,10.99,-74.96
75,Turukhansk,RU,1532356415,55.72,55.72,0,58,17.22,65.8,87.96
76,Saint Anthony,US,1532354160,60.28,64.4,1,67,3.36,43.97,-111.68
77,Bukama,CD,1532356416,83.89,83.89,0,24,10.85,-9.2,25.85
78,Ust-Maya,RU,1532356416,56.98,56.98,80,71,3.24,60.42,134.54
79,Manggar,ID,1532356416,82.45,82.45,92,83,11.18,-2.88,108.27
80,New Norfolk,AU,1532354400,50.0,50.0,75,61,12.75,-42.78,147.06
81,Oga,NG,1532356416,82.63,82.63,20,89,7.83,8.18,5.65
82,Oktyabrskiy,RU,1532354400,67.59,69.8,75,82,13.42,55.61,37.97
83,Atikokan,CA,1532356417,71.11,71.11,12,72,3.47,48.76,-91.62
84,Nikolskoye,RU,1532354400,75.2,75.2,75,78,4.47,59.7,30.79
85,Karratha,AU,1532356417,62.74,62.74,0,65,8.28,-20.74,116.85
86,Bonavista,CA,1532356418,70.84,70.84,36,63,11.74,48.65,-53.11
87,Ahipara,NZ,1532356418,46.27,46.27,68,100,3.36,-35.17,173.16
88,Mehamn,NO,1532353800,55.4,55.4,40,82,8.05,71.03,27.85
89,Bredasdorp,ZA,1532354400,68.0,68.0,0,60,10.29,-34.53,20.04
90,Ghanzi,BW,1532356418,71.29,71.29,0,33,14.54,-21.7,21.65
91,Kudymkar,RU,1532356418,75.07,75.07,0,49,3.02,59.01,54.66
92,Cooma,AU,1532356419,41.5,41.5,12,63,14.32,-36.24,149.13
93,Laguna,MX,1532353380,84.2,84.2,75,70,8.05,27.52,-110.01
94,Cockburn Town,TC,1532356310,81.19,81.19,56,100,16.44,21.46,-71.14
95,Yazd,IR,1532354400,105.8,105.8,20,2,2.24,31.89,54.36
96,Kachkanar,RU,1532356419,73.72,73.72,0,53,3.47,58.7,59.48
97,Alto Araguaia,BR,1532356419,85.24,85.24,0,34,3.91,-17.32,-53.22
98,Kutum,SD,1532356419,84.61,84.61,92,64,4.59,14.2,24.66
99,Songea,TZ,1532354400,71.6,71.6,40,43,13.87,-10.68,35.65
100,Port Hawkesbury,CA,1532354400,78.8,78.8,75,74,10.29,45.62,-61.36
101,Lavrentiya,RU,1532356420,44.2,44.2,92,93,1.68,65.58,-170.99
102,Oriximina,BR,1532356420,92.17,92.17,0,51,3.13,-1.77,-55.87
103,Kasba,IN,1532356420,80.83,80.83,68,90,5.7,25.86,87.54
104,Hovd,NO,1532355600,67.06,68.0,75,64,4.7,63.83,10.7
105,Vilyuysk,RU,1532356421,52.75,52.75,36,87,3.58,63.75,121.63
106,Chapais,CA,1532354400,66.2,66.2,90,93,8.05,49.78,-74.86
107,Qandala,SO,1532356421,88.39,88.39,8,51,2.57,11.47,49.87
108,Tomatlan,MX,1532356421,80.02,80.02,12,86,2.91,19.93,-105.25
109,Luderitz,NA,1532356421,66.52,66.52,0,52,3.47,-26.65,15.16
110,Saint-Philippe,CA,1532354400,80.15,82.4,20,74,8.05,45.36,-73.48
111,Santa Cruz,US,1532354880,60.21,62.6,75,88,6.93,36.97,-122.03
112,Vila Velha,BR,1532354400,86.0,86.0,20,45,20.8,-3.71,-38.6
113,Georgetown,GY,1532354400,84.2,84.2,75,79,11.41,6.8,-58.16
114,Sao Filipe,CV,1532356424,78.94,78.94,56,89,8.05,14.9,-24.5
115,Hobart,AU,1532354400,50.0,50.0,75,61,12.75,-42.88,147.33
116,Hithadhoo,MV,1532356425,78.4,78.4,92,100,9.73,-0.6,73.08
117,Marsh Harbour,BS,1532356425,84.79,84.79,20,97,16.78,26.54,-77.06
118,Namibe,AO,1532356425,69.49,69.49,0,95,13.09,-15.19,12.15
119,Isangel,VU,1532356425,71.65,71.65,0,100,13.76,-19.55,169.27
120,Muhos,FI,1532355600,77.0,77.0,0,57,12.75,64.81,26.0
121,Kodiak,US,1532353980,73.4,73.4,1,78,4.7,39.95,-94.76
122,Kihei,US,1532355300,74.3,77.0,90,100,6.38,20.76,-156.45
123,Wanning,AT,1532353800,75.2,75.2,40,60,8.05,48.64,13.53
124,Lompoc,US,1532354160,60.24,66.2,90,87,3.36,34.64,-120.46
125,Rabaul,PG,1532356426,75.52,75.52,100,100,3.24,-4.2,152.17
126,Avera,US,1532354100,76.3,78.8,40,88,3.36,33.19,-82.53
127,Stonewall,CA,1532354400,66.2,66.2,5,77,14.99,50.13,-97.33
128,Sangin,AF,1532356427,91.99,91.99,48,18,1.45,32.07,64.85
129,Port Blair,IN,1532356287,82.27,82.27,92,100,18.68,11.67,92.75
130,Ilulissat,GL,1532353800,42.8,42.8,75,81,4.7,69.22,-51.1
131,Sao Joao da Barra,BR,1532354400,78.8,78.8,75,69,5.82,-21.64,-41.05
132,Golynki,RU,1532356427,73.0,73.0,76,81,12.19,54.87,31.38
133,Bhaderwah,IN,1532356428,63.55,63.55,68,92,1.12,32.98,75.72
134,Moratuwa,LK,1532351400,80.6,80.6,40,83,8.05,6.77,79.88
135,Ayan,TR,1532356428,71.2,71.2,80,52,2.35,40.67,33.6
136,Trairi,BR,1532356428,80.92,80.92,0,96,24.83,-3.28,-39.27
137,Te Anau,NZ,1532356428,35.56,35.56,80,98,3.02,-45.41,167.72
138,Kavieng,PG,1532356428,79.75,79.75,92,100,12.41,-2.57,150.8
139,Kruisfontein,ZA,1532356429,75.07,75.07,0,42,5.7,-34.0,24.73
140,Fort Nelson,CA,1532354400,46.4,46.4,90,93,3.36,58.81,-122.69
141,Sideropolis,BR,1532356429,67.24,67.24,36,91,3.13,-28.6,-49.42
142,Chhuikhadan,IN,1532356429,75.16,75.16,92,95,12.97,21.52,81.0
143,Codrington,AU,1532356429,46.27,46.27,0,84,5.14,-28.95,153.24
144,Torbay,CA,1532354400,68.0,68.0,90,88,17.22,47.66,-52.73
145,Coquimbo,CL,1532354400,51.8,51.8,0,71,2.24,-29.95,-71.34
146,Saint-Pierre,FR,1532354400,85.01,86.0,0,35,5.82,48.95,4.24
147,Aquiraz,BR,1532354400,86.0,86.0,20,45,20.8,-3.9,-38.39
148,Palmer,US,1532354160,55.71,59.0,1,100,5.82,61.6,-149.11
149,Quatre Cocos,MU,1532354400,69.8,69.8,75,83,19.46,-20.21,57.76
150,Havelock,US,1532354580,78.8,80.6,75,94,10.29,34.88,-76.9
151,Pisco,PE,1532354400,62.6,62.6,90,93,5.82,-13.71,-76.2
152,Port Hardy,CA,1532354400,53.6,53.6,90,100,2.24,50.7,-127.42
153,Bagdarin,RU,1532356432,50.5,50.5,8,76,2.24,54.44,113.59
154,Aksu,KZ,1532354400,57.2,57.2,75,76,11.18,52.04,76.93
155,Rognan,NO,1532355600,59.0,59.0,75,77,11.41,67.1,15.4
156,Crixas,BR,1532356432,84.07,84.07,20,37,12.64,-14.55,-49.97
157,Rocha,UY,1532356433,48.34,48.34,80,88,13.98,-34.48,-54.34
158,Luchenza,MW,1532356433,64.54,64.54,36,79,4.92,-16.01,35.31
159,Tasiilaq,GL,1532353800,53.6,53.6,20,54,5.82,65.61,-37.64
160,Ganzhou,CN,1532356433,76.42,76.42,32,93,2.57,25.86,114.93
161,College,US,1532354280,58.37,59.0,1,72,3.36,64.86,-147.8
162,Wum,CM,1532356434,69.49,69.49,100,100,3.36,6.39,10.08
163,Castro,CL,1532356434,42.58,42.58,92,100,3.58,-42.48,-73.76
164,Araure,VE,1532354400,73.4,73.4,90,94,3.36,9.59,-69.23
165,San Francisco,US,1532354400,59.77,62.6,75,93,9.17,37.78,-122.42
166,Xinyang,CN,1532356435,83.8,83.8,32,79,1.57,32.13,114.07
167,Kavaratti,IN,1532356436,82.9,82.9,8,95,24.05,10.57,72.64
168,Klaksvik,FO,1532355600,51.8,51.8,80,93,10.29,62.23,-6.59
169,Najran,SA,1532354400,96.8,96.8,75,16,4.7,17.54,44.22
170,Ossora,RU,1532356436,51.85,51.85,0,100,11.74,59.24,163.07
171,Yongan,CN,1532356436,64.9,64.9,8,88,3.13,39.7,113.69
172,Road Town,VG,1532354400,85.01,86.0,40,66,11.41,18.42,-64.62
173,Pyay,MM,1532356437,79.03,79.03,76,90,5.37,18.82,95.22
174,Qaanaaq,GL,1532356437,33.85,33.85,76,100,3.58,77.48,-69.36
175,Barceloneta,PR,1532354160,83.3,84.2,40,66,20.8,18.45,-66.54
176,Acapulco,MX,1532353500,80.6,80.6,90,78,6.93,16.86,-99.88
177,Kabelvag,NO,1532353800,57.2,57.2,75,76,17.22,68.21,14.48
178,Oktyabrskoye,RU,1532356438,61.75,61.75,32,65,9.73,56.73,85.44
179,Kathmandu,NP,1532353800,75.2,75.2,75,88,4.7,27.71,85.32
180,Guerrero Negro,MX,1532356438,70.48,70.48,36,91,4.7,27.97,-114.04
181,Lhokseumawe,ID,1532356439,84.88,84.88,20,97,6.71,5.18,97.15
182,Mokhsogollokh,RU,1532356439,53.47,53.47,12,87,5.59,61.4,128.95
183,Darnah,LY,1532356439,81.1,81.1,0,91,16.11,32.77,22.64
184,Arys,KZ,1532354400,93.2,93.2,0,24,6.71,42.43,68.8
185,Albania,CO,1532356440,71.38,71.38,32,67,2.46,5.76,-73.91
186,Mount Isa,AU,1532354400,46.4,46.4,0,31,3.13,-20.73,139.49
187,Issaquah,US,1532354280,61.36,66.2,1,72,1.9,47.53,-122.04
188,Lebu,ET,1532356440,59.86,59.86,76,92,3.8,8.96,38.73
189,Margate,AU,1532354400,50.0,50.0,75,61,12.75,-43.03,147.26
190,Zaysan,KZ,1532356440,75.79,75.79,36,38,9.4,47.47,84.87
191,Tessalit,ML,1532356441,108.64,108.64,0,15,4.7,20.2,1.01
192,Babrala,IN,1532356441,85.06,85.06,20,75,7.49,28.27,78.41
193,Tokur,RU,1532356441,61.39,61.39,88,99,2.13,53.13,132.9
194,Butaritari,KI,1532356178,80.92,80.92,32,100,4.59,3.07,172.79
195,Aswan,EG,1532354400,104.0,104.0,0,14,8.05,24.09,32.9
196,Russell,AR,1532354400,39.2,39.2,8,55,2.24,-33.01,-68.8
197,Clyde River,CA,1532354400,37.4,37.4,90,93,25.28,70.47,-68.59
198,Nome,US,1532356140,83.26,84.2,90,79,6.93,30.04,-94.42
199,Tezu,IN,1532356442,67.69,67.69,76,100,1.12,27.93,96.16
200,Saint-Maximin-la-Sainte-Baume,FR,1532354400,89.62,93.2,20,28,5.82,43.45,5.86
201,Leningradskiy,RU,1532356442,45.55,45.55,56,75,10.51,69.38,178.42
202,Roxas,PH,1532356442,84.07,84.07,92,96,8.72,10.32,119.34
203,Severo-Kurilsk,RU,1532356443,50.23,50.23,80,96,10.63,50.68,156.12
204,Kaeo,NZ,1532356443,36.1,36.1,44,79,2.91,-35.1,173.78
205,Kisangani,CD,1532356443,79.75,79.75,80,80,2.68,0.52,25.21
206,Coruripe,BR,1532356443,79.12,79.12,24,91,13.98,-10.12,-36.18
207,Tabuk,PH,1532356443,68.77,68.77,76,95,2.13,17.41,121.44
208,Sitka,US,1532356444,82.72,82.72,0,60,6.38,37.17,-99.65
209,East London,ZA,1532354400,75.2,75.2,0,31,6.93,-33.02,27.91
210,Eureka,US,1532354100,52.7,53.6,90,100,3.36,40.8,-124.16
211,Iqaluit,CA,1532354400,51.8,51.8,75,71,6.93,63.75,-68.52
212,Saldanha,PT,1532356445,89.2,89.2,0,27,9.84,41.42,-6.55
213,Katsuura,JP,1532356445,82.27,82.27,0,82,5.82,33.93,134.5
214,Thompson,CA,1532354400,59.0,59.0,90,93,14.99,55.74,-97.86
215,Eydhafushi,MV,1532356309,83.98,83.98,92,96,21.36,5.1,73.07
216,Galesong,ID,1532354400,78.8,78.8,20,78,4.7,-5.32,119.37
217,Norman Wells,CA,1532354400,57.2,57.2,40,76,5.82,65.28,-126.83
218,Beisfjord,NO,1532353800,60.8,60.8,40,63,13.87,68.38,17.6
219,Ambulu,ID,1532356446,73.9,73.9,24,100,8.05,-8.35,113.61
220,Holetown,BB,1532354400,86.0,86.0,40,66,20.8,13.19,-59.64
221,Baykit,RU,1532356446,58.24,58.24,20,70,6.38,61.68,96.39
222,Misratah,LY,1532356447,93.79,93.79,0,47,14.65,32.38,15.09
223,Burgersdorp,ZA,1532356447,58.42,58.42,0,35,9.62,-30.99,26.32
224,Faanui,PF,1532356447,79.03,79.03,20,100,11.63,-16.48,-151.75
225,Kurmanayevka,RU,1532356447,70.84,70.84,8,56,9.73,52.51,52.07
226,Bela,PK,1532356448,88.66,88.66,88,55,4.14,26.23,66.31
227,Broome,GB,1532355600,87.48,89.6,40,45,13.87,52.47,1.45
228,Sisimiut,GL,1532356448,51.31,51.31,64,74,2.68,66.94,-53.67
229,Vaitape,PF,1532356448,80.02,80.02,48,98,9.84,-16.52,-151.75
230,Nantucket,US,1532355300,75.2,78.8,1,94,16.11,41.28,-70.1
231,Kapuskasing,CA,1532354400,66.2,66.2,75,59,3.47,49.42,-82.43
232,Poum,MK,1532354400,62.6,62.6,75,77,5.82,41.28,20.71
233,Yumen,CN,1532356449,67.42,67.42,0,25,2.91,40.29,97.04
234,Non Sang,TH,1532350800,84.31,86.0,44,74,6.93,16.87,102.57
235,Mutoko,ZW,1532356449,66.07,66.07,0,42,10.85,-17.4,32.23
236,Nivala,FI,1532356449,77.68,77.68,48,58,3.69,63.93,24.96
237,Fortuna,ES,1532354400,86.85,91.4,0,66,8.05,38.18,-1.13
238,North Bend,US,1532355300,54.43,55.4,90,93,11.41,43.41,-124.22
239,Tiksi,RU,1532356450,41.14,41.14,12,77,10.51,71.64,128.87
240,Ambon,FR,1532354400,84.2,84.2,0,39,8.05,47.55,-2.56
241,Ponta do Sol,BR,1532356450,73.99,73.99,32,51,6.6,-20.63,-46.0
242,Erenhot,CN,1532356450,65.17,65.17,92,100,4.7,43.65,111.97
243,Bethel,US,1532353980,53.6,53.6,75,93,4.7,60.79,-161.76
244,Chernyshevskiy,RU,1532356451,49.24,49.24,88,75,4.14,63.01,112.47
245,Fairbanks,US,1532354280,58.37,59.0,1,72,3.36,64.84,-147.72
246,Furukawa,JP,1532356452,69.04,69.04,80,100,4.81,38.57,140.96
247,Husavik,CA,1532356452,68.5,68.5,0,93,12.41,50.56,-96.99
248,Nerchinskiy Zavod,RU,1532356452,58.06,58.06,48,83,2.35,51.31,119.61
249,Angoche,MZ,1532356452,79.21,79.21,56,92,10.18,-16.23,39.91
250,Daru,SL,1532356453,81.37,81.37,36,96,4.7,7.99,-10.85
251,Cayenne,GF,1532354400,73.4,73.4,68,100,5.82,4.94,-52.33
252,Hokitika,NZ,1532356453,45.55,45.55,0,100,11.63,-42.72,170.96
253,Kapaa,US,1532354160,77.83,78.8,90,88,14.99,22.08,-159.32
254,San Cristobal,EC,1532354400,53.6,53.6,75,81,17.22,-0.39,-78.55
255,Hambantota,LK,1532356454,82.45,82.45,0,92,20.69,6.12,81.12
256,Chokurdakh,RU,1532356454,50.5,50.5,76,98,5.7,70.62,147.9
257,Carnarvon,ZA,1532356443,62.83,62.83,20,31,17.0,-30.97,22.13
258,Mexico,US,1532355660,71.11,73.4,90,94,9.17,44.56,-70.55
259,Claudio,BR,1532356455,72.55,72.55,32,59,7.05,-20.44,-44.77
260,Imeni Poliny Osipenko,RU,1532356455,66.16,66.16,64,81,4.47,52.42,136.49
261,Jardim,BR,1532356455,84.7,84.7,0,48,4.36,-21.48,-56.15
262,Port Macquarie,AU,1532354400,42.8,42.8,0,93,2.24,-31.43,152.91
263,Xinqing,CN,1532356455,70.93,70.93,12,88,3.58,48.28,129.53
264,Kamenka,RU,1532356456,63.1,63.1,92,92,14.43,53.19,44.05
265,Qasigiannguit,GL,1532353800,42.8,42.8,75,81,4.7,68.82,-51.19
266,Chuy,UY,1532356446,53.2,53.2,68,94,19.24,-33.69,-53.46
267,Gradistea,RO,1532356456,80.2,80.2,20,71,7.16,44.23,27.22
268,Ibicui,BR,1532356456,73.18,73.18,48,82,7.94,-14.84,-39.99
269,Warangal,IN,1532356457,84.79,84.79,100,60,10.85,17.99,79.6
270,Esna,RO,1532356457,76.87,76.87,48,83,6.6,45.2,27.57
271,Sambava,MG,1532356457,70.84,70.84,88,100,24.61,-14.27,50.17
272,Abu Kamal,SY,1532356458,102.52,102.52,0,13,14.99,34.45,40.92
273,Kalulushi,ZM,1532356458,70.75,70.75,0,36,13.42,-12.84,28.09
274,Vardo,US,1532354820,74.7,78.8,90,100,10.29,39.62,-77.74
275,Tselinnoye,UA,1532356458,83.53,83.53,0,63,7.61,45.9,34.18
276,Wagar,US,1532356458,84.43,84.43,12,72,3.58,31.44,-87.99
277,Sawtell,AU,1532352600,57.2,57.2,0,71,10.29,-30.38,153.1
278,Guisguis,PH,1532356459,80.02,80.02,92,100,13.65,13.86,121.5
279,Kidal,ML,1532356459,104.05,104.05,0,27,4.59,18.44,1.41
280,Novyy Svit,UA,1532356459,78.94,78.94,48,59,5.59,47.81,38.02
281,Soyo,AO,1532356459,83.08,83.08,0,58,6.38,-6.13,12.37
282,The Pas,CA,1532354640,59.0,59.0,90,93,21.92,53.82,-101.24
283,Longyearbyen,NO,1532353800,46.4,46.4,75,87,3.36,78.22,15.63
284,Brandon,US,1532355300,71.6,73.4,40,94,5.82,43.59,-96.57
285,Imbituba,BR,1532354400,69.8,69.8,0,68,5.82,-28.24,-48.67
286,Anqing,CN,1532356460,82.63,82.63,0,83,3.13,30.51,117.04
287,Maragogi,BR,1532356384,75.97,75.97,88,87,12.53,-9.01,-35.22
288,Hamilton,BM,1532354100,80.6,80.6,75,78,12.75,32.3,-64.78
289,Tarauaca,BR,1532354400,78.8,78.8,0,69,2.24,-8.16,-70.77
290,Inuvik,CA,1532354400,67.8,69.8,20,49,2.24,68.36,-133.71
291,Rawson,AR,1532356461,45.64,45.64,0,52,12.3,-43.3,-65.11
292,Tuatapere,NZ,1532356462,40.42,40.42,68,100,9.84,-46.13,167.69
293,Constitucion,MX,1532353620,60.8,60.8,5,72,2.57,23.99,-104.67
294,Tahoua,NE,1532354400,96.8,96.8,20,37,9.17,14.89,5.26
295,Camacupa,AO,1532356462,73.09,73.09,0,33,7.83,-12.02,17.48
296,Yenagoa,NG,1532356462,77.05,77.05,92,95,8.61,4.92,6.26
297,Moyale,ET,1532356463,68.5,68.5,92,76,7.94,3.52,39.05
298,Pitimbu,BR,1532354400,80.6,80.6,75,65,16.11,-7.47,-34.81
299,Pevek,RU,1532356463,55.54,55.54,76,67,21.03,69.7,170.27
300,Bonito,BR,1532356463,84.52,84.52,12,90,9.73,-1.36,-47.3
301,Piacabucu,BR,1532356463,82.09,82.09,0,62,13.76,-10.41,-36.43
302,Tautira,PF,1532354400,71.6,71.6,8,78,9.51,-17.73,-149.15
303,Cidreira,BR,1532356464,60.94,60.94,92,95,9.95,-30.17,-50.22
304,Praia da Vitoria,PT,1532354400,75.2,75.2,20,78,11.52,38.73,-27.07
305,Rome,IT,1532354100,82.38,84.2,40,54,11.41,41.89,12.48
306,Taksimo,RU,1532356464,48.34,48.34,0,77,2.13,56.36,114.84
307,Souillac,FR,1532354400,85.01,86.0,0,30,8.05,45.6,-0.6
308,Paamiut,GL,1532356465,44.29,44.29,0,86,24.94,61.99,-49.67
309,Kungurtug,RU,1532356465,50.41,50.41,0,83,2.35,50.6,97.53
310,Wamba,CD,1532356465,79.3,79.3,64,72,2.13,2.14,27.99
311,San Marco in Lamis,IT,1532353800,77.67,78.8,20,54,17.22,41.71,15.64
312,Ginir,ET,1532356465,70.03,70.03,0,51,13.76,7.14,40.71
313,Ugoofaaru,MV,1532356466,83.98,83.98,92,96,21.36,5.67,73.0
314,Zhengjiatun,CN,1532356466,81.28,81.28,44,69,9.95,43.51,123.51
315,Suntar,RU,1532356466,52.03,52.03,44,85,2.57,62.16,117.65
316,Bend,US,1532355300,62.42,64.4,1,36,5.82,44.06,-121.32
317,Morant Bay,JM,1532354400,86.0,86.0,20,70,10.29,17.88,-76.41
318,Severodvinsk,RU,1532354400,82.4,82.4,0,37,6.71,64.56,39.82
319,Kargasok,RU,1532356216,64.09,64.09,64,53,7.05,59.06,80.87
320,Talnakh,RU,1532356467,46.63,46.63,0,67,16.22,69.49,88.39
321,Khatanga,RU,1532356467,46.0,46.0,20,65,9.95,71.98,102.47
322,Hami,CN,1532356467,80.65,80.65,0,31,6.15,42.84,93.51
323,Weihai,CN,1532356467,77.32,77.32,32,93,14.76,37.5,122.11
324,Coos Bay,US,1532355300,54.43,55.4,90,93,11.41,43.37,-124.22
325,San Patricio,PY,1532356468,57.79,57.79,80,70,7.83,-26.98,-56.83
326,Ewa Beach,US,1532354820,76.1,78.8,75,78,4.7,21.32,-158.01
327,Qaqortoq,GL,1532353800,59.0,59.0,5,44,5.82,60.72,-46.03
328,Myatlevo,RU,1532356468,67.6,67.6,68,82,13.98,54.9,35.68
329,Tabou,CI,1532356468,78.76,78.76,8,100,8.39,4.42,-7.36
330,Uralets,RU,1532356468,73.09,73.09,0,46,4.92,57.66,59.65
331,Kahului,US,1532355300,74.23,77.0,90,100,6.38,20.89,-156.47
332,Naze,NG,1532350800,86.0,86.0,75,74,4.7,5.43,7.07
333,Gramsh,AL,1532354400,62.6,62.6,75,77,5.82,40.87,20.19
334,Vitoria,BR,1532356389,82.0,82.0,0,70,3.02,-8.36,-72.77
335,Lata,IN,1532356469,61.75,61.75,100,100,1.45,30.78,78.62
336,Mahebourg,MU,1532354400,69.8,69.8,75,83,19.46,-20.41,57.7
337,Sampit,ID,1532356470,78.31,78.31,44,80,10.4,-2.54,112.95
338,Georgiyevka,RU,1532356470,73.36,73.36,88,90,9.73,52.25,40.45
339,Henties Bay,NA,1532356376,80.02,80.02,0,40,5.26,-22.12,14.28
340,Alofi,NU,1532354400,66.2,66.2,0,93,2.24,-19.06,-169.92
341,Sassandra,CI,1532356470,78.76,78.76,0,98,9.95,4.95,-6.09
342,Barkhan,PK,1532356470,88.57,88.57,48,41,8.05,29.9,69.52
343,Bambanglipuro,ID,1532356470,70.12,70.12,0,93,5.37,-7.95,110.28
344,Jackson,US,1532355360,74.59,75.2,90,83,6.93,35.61,-88.82
345,Otjimbingwe,NA,1532356471,74.17,74.17,0,22,10.63,-22.35,16.13
346,Buala,SB,1532356471,78.85,78.85,80,100,5.7,-8.15,159.59
347,Vyazma,RU,1532356472,70.03,70.03,76,77,11.63,55.21,34.3
348,Santa Cruz de Tenerife,ES,1532354400,74.82,78.8,20,68,16.11,28.47,-16.25
349,Gewane,ET,1532356472,92.35,92.35,24,31,4.47,10.16,40.66
350,Meridian,US,1532354280,80.6,80.6,90,69,8.05,32.36,-88.7
351,Grindavik,IS,1532354400,52.75,53.6,75,81,6.93,63.84,-22.43
352,Caravelas,BR,1532356472,75.52,75.52,88,100,19.24,-17.73,-39.27
353,Yulara,AU,1532354400,55.4,55.4,32,50,6.93,-25.24,130.99
354,Hualmay,PE,1532356473,66.97,66.97,0,73,3.69,-11.1,-77.61
355,Fuyang,CN,1532356473,83.17,83.17,0,81,1.23,32.89,115.81
356,Arica,CL,1532354400,57.88,60.8,90,82,2.24,-18.48,-70.32
357,South Yuba City,US,1532354400,68.88,75.2,1,60,6.93,39.12,-121.64
358,Moindou,NC,1532354400,62.6,62.6,90,93,2.24,-21.69,165.68
359,Mezen,RU,1532356473,82.9,82.9,0,34,7.49,65.85,44.24
360,Lagoa,PT,1532354400,77.0,77.0,0,61,5.82,37.14,-8.45
361,Redlands,US,1532354400,72.61,75.2,5,47,2.57,34.06,-117.19
362,Gander,CA,1532354400,73.4,73.4,90,83,11.41,48.95,-54.61
363,Stephenville,US,1532355300,88.5,89.6,1,35,6.93,32.22,-98.2
364,Tromso,NO,1532353800,57.2,57.2,75,76,17.22,69.65,18.96
365,Christchurch,NZ,1532354400,42.8,42.8,76,93,9.17,-43.53,172.64
366,Kaitangata,NZ,1532356475,41.41,41.41,92,95,4.7,-46.28,169.85
367,Hirara,JP,1532356475,84.07,84.07,56,96,13.2,24.8,125.28
368,Lasa,CY,1532356200,88.92,89.6,0,55,16.11,34.92,32.53
369,Banda Aceh,ID,1532356475,79.21,79.21,12,83,4.92,5.56,95.32
370,Tazovskiy,RU,1532356475,64.27,64.27,8,27,11.97,67.47,78.7
371,Amga,RU,1532356476,54.73,54.73,92,81,3.8,60.89,131.98
372,Susanville,US,1532354100,62.6,62.6,1,67,2.13,40.42,-120.65
373,Sorong,ID,1532356476,80.29,80.29,68,100,6.93,-0.86,131.25
374,Beaverlodge,CA,1532354400,51.8,51.8,90,93,13.87,55.21,-119.43
375,Uyuni,BO,1532356476,48.52,48.52,0,33,8.39,-20.46,-66.82
376,Flinders,AU,1532350800,53.6,53.6,75,37,6.93,-34.58,150.85
377,Mariestad,SE,1532355600,80.6,80.6,0,34,8.05,58.71,13.82
378,Port Lincoln,AU,1532356477,59.23,59.23,24,84,23.04,-34.72,135.86
379,Geraldton,CA,1532354400,64.4,64.4,75,55,5.82,49.72,-86.95
380,Petropavlovsk-Kamchatskiy,RU,1532354400,55.4,55.4,75,93,2.24,53.05,158.65
381,Sioux Lookout,CA,1532354400,68.76,69.8,75,77,9.17,50.1,-91.92
382,Cabo San Lucas,MX,1532353800,80.6,80.6,40,100,11.74,22.89,-109.91
383,Pudozh,RU,1532356478,79.39,79.39,76,46,7.05,61.81,36.54
384,Kokkola,FI,1532355600,78.8,78.8,0,44,11.41,63.84,23.13
385,Bereda,ES,1532354400,73.4,73.4,20,73,12.75,43.27,-7.54
386,La Ronge,CA,1532354400,59.0,59.0,75,77,18.34,55.1,-105.3
387,Aklavik,CA,1532354400,68.29,69.8,20,77,3.36,68.22,-135.01
388,Auch,FR,1532354400,86.0,86.0,0,35,3.36,43.65,0.59
389,Araouane,ML,1532356266,107.29,107.29,24,24,4.7,18.9,-3.53
390,Anadyr,RU,1532354400,51.8,51.8,90,87,8.95,64.73,177.51
391,Zhezkazgan,KZ,1532350800,73.4,73.4,0,25,20.13,47.8,67.71
392,Somers Point,US,1532354880,80.6,80.6,75,78,17.22,39.32,-74.59
393,Vanimo,PG,1532356479,82.54,82.54,92,100,5.48,-2.67,141.3
394,Kununurra,AU,1532354400,55.4,55.4,0,76,5.82,-15.77,128.74
395,Samarai,PG,1532356480,77.86,77.86,92,100,11.97,-10.62,150.67
396,Darhan,MN,1532356480,61.3,61.3,20,89,2.8,49.49,105.92
397,Prykolotne,UA,1532356480,77.5,77.5,20,75,3.91,50.16,37.35
398,Seguin,US,1532354160,82.4,82.4,1,74,5.82,29.57,-97.96
399,Matagami,NG,1532350800,80.6,80.6,40,65,2.24,9.67,8.4
400,Rock Sound,BS,1532356481,83.53,83.53,76,100,12.41,24.9,-76.2
401,Aykhal,RU,1532356481,50.14,50.14,36,68,3.47,65.95,111.51
402,Gat,SN,1532356481,83.53,83.53,92,78,5.59,14.69,-16.54
403,Dingle,PH,1532356481,77.95,77.95,76,86,7.05,11.0,122.67
404,Porto Walter,BR,1532356481,82.0,82.0,0,70,3.02,-8.27,-72.74
405,Mountain Home,US,1532354280,65.44,66.2,40,27,2.46,43.13,-115.69
406,Altus,US,1532354160,79.54,82.4,75,54,16.11,34.64,-99.33
407,Homer,US,1532353980,55.31,57.2,90,71,6.93,59.64,-151.54
408,Laranjeiras do Sul,BR,1532356447,76.78,76.78,0,59,3.91,-25.41,-52.42
409,Mahibadhoo,MV,1532356482,82.9,82.9,92,100,23.26,3.78,72.97
410,Roebourne,AU,1532356482,62.74,62.74,0,65,8.28,-20.77,117.15
411,Miri,NG,1532356483,79.21,79.21,24,89,1.45,10.31,9.75
412,Lugo,ES,1532356380,82.18,82.18,36,54,3.69,43.01,-7.56
413,Chicama,PE,1532354400,64.4,64.4,90,88,4.7,-7.84,-79.15
414,Saint-Joseph,FR,1532354400,86.81,93.2,0,51,14.99,43.56,6.97
415,Egvekinot,RU,1532356484,37.27,37.27,8,93,2.13,66.32,-179.17
416,Tura,IN,1532356484,79.84,79.84,24,88,3.36,25.52,90.21
417,Soc Trang,VN,1532356484,80.65,80.65,36,83,10.4,9.6,105.98
418,Salalah,OM,1532353800,80.6,80.6,75,83,6.93,17.01,54.1
419,Los Llanos de Aridane,ES,1532356484,72.55,72.55,0,94,12.75,28.66,-17.92
420,Bowen,AU,1532350800,57.2,57.2,0,93,4.7,-20.01,148.25
421,Sayyan,YE,1532356485,68.95,68.95,20,51,3.91,15.17,44.32
422,Pierre,US,1532353980,69.8,69.8,1,60,9.17,44.37,-100.35
423,Katherine,AU,1532354400,53.6,53.6,0,54,4.7,-14.47,132.26
424,Kaoma,ZM,1532356485,72.82,72.82,32,41,18.01,-14.8,24.8
425,Saint George,GR,1532353800,93.2,93.2,20,28,20.8,39.45,22.34
426,Ocamonte,CO,1532356485,71.2,71.2,20,74,1.9,6.34,-73.12
427,Davila,PH,1532356486,79.84,79.84,68,99,14.65,18.47,120.58
428,Matara,PE,1532350800,46.4,46.4,40,61,2.01,-13.74,-72.9
429,Yar-Sale,RU,1532356486,65.17,65.17,64,65,2.57,66.83,70.83
430,Jodhpur,IN,1532356486,87.58,87.58,68,63,8.72,26.3,73.04
431,Lichuan,CN,1532356486,73.81,73.81,12,74,1.9,30.3,108.94
432,Gizo,IL,1532353800,87.73,89.6,0,55,6.93,31.8,34.94
433,High Level,CA,1532354400,53.6,53.6,75,76,6.93,58.52,-117.13
434,Awbari,LY,1532356487,104.41,104.41,0,7,10.18,26.59,12.77
435,Hanyu,JP,1532354160,84.2,84.2,1,66,3.36,36.18,139.55
436,Portage,US,1532355300,71.98,73.4,1,78,5.82,41.58,-87.18
437,Brae,GB,1532355600,57.2,57.2,75,93,16.11,60.4,-1.35
438,Ottweiler,DE,1532355600,80.56,84.2,0,37,5.82,49.4,7.16
439,Weymouth,US,1532355300,78.19,80.6,90,78,12.75,42.22,-70.94
440,Andros Town,BS,1532354400,80.6,80.6,75,74,5.82,24.73,-77.79
441,Sobolevo,RU,1532356489,72.28,72.28,92,81,11.74,54.43,31.9
442,Maceio,BR,1532354400,78.8,78.8,75,65,13.87,-9.67,-35.74
443,Praya,ID,1532354400,75.2,75.2,20,83,10.29,-8.71,116.27
444,Lokosovo,RU,1532356489,74.17,74.17,0,58,8.16,61.13,74.84
445,Cowra,AU,1532356489,40.42,40.42,92,80,7.72,-33.84,148.69
446,Koumac,NC,1532356490,66.79,66.79,12,90,8.95,-20.56,164.28
447,General Pico,AR,1532356490,44.92,44.92,0,46,4.81,-35.66,-63.75
448,Sinnamary,GF,1532356490,82.0,82.0,64,93,9.06,5.38,-52.96
449,Isiolo,KE,1532356490,71.74,71.74,0,65,11.63,0.35,37.58
450,Itarema,BR,1532356490,89.47,89.47,0,54,16.22,-2.92,-39.92
451,Vestmannaeyjar,IS,1532354400,51.8,51.8,40,81,5.82,63.44,-20.27
452,Ulladulla,AU,1532350800,53.6,53.6,75,37,6.93,-35.36,150.48
453,Anito,PH,1532356491,83.44,83.44,88,100,23.04,12.45,125.29
454,Komsomolskiy,RU,1532356491,82.72,82.72,24,26,10.74,67.55,63.78
455,Portland,US,1532353980,60.96,66.2,1,68,2.35,45.52,-122.67
456,Tyumentsevo,RU,1532356492,64.9,64.9,92,97,10.74,53.32,81.5
457,Ulundi,ZA,1532356492,70.66,70.66,0,30,5.14,-28.29,31.43
458,Wewak,PG,1532356492,77.86,77.86,68,89,2.8,-3.55,143.63
459,Serramanna,IT,1532353800,86.61,87.8,20,40,20.8,39.42,8.92
460,Sheridan,US,1532354280,66.6,69.8,75,77,4.14,39.65,-105.03
461,Pizarro,CO,1532356493,76.15,76.15,88,100,3.02,4.95,-77.37
462,Panama City,US,1532354160,82.4,82.4,1,69,4.7,30.16,-85.65
463,Bambous Virieux,MU,1532354400,69.8,69.8,75,83,19.46,-20.34,57.76
464,Bosaso,SO,1532350800,89.6,89.6,0,66,8.05,11.28,49.18
465,Vostok,RU,1532356494,66.97,66.97,64,93,2.01,46.45,135.83
466,Wattegama,LK,1532356494,71.11,71.11,100,99,3.02,7.35,80.68
467,Clarence Town,AU,1532354400,48.2,48.2,0,76,6.93,-32.59,151.78
468,Horodyshche,UA,1532354400,77.0,77.0,20,69,6.71,50.76,29.29
469,Zitlala,MX,1532356494,69.76,69.76,8,73,1.45,17.69,-99.19
470,Puerto Escondido,MX,1532353500,78.8,78.8,40,74,11.41,15.86,-97.07
471,Berkakit,RU,1532356495,46.54,46.54,80,89,6.15,56.58,124.77
472,Marrakesh,MA,1532354400,95.0,95.0,0,28,4.7,31.63,-7.99
473,Itapuranga,BR,1532356495,84.07,84.07,8,33,11.63,-15.56,-49.95
474,Jalingo,NG,1532356495,88.75,88.75,48,62,8.16,10.3,10.93
475,Dryden,CA,1532354400,68.0,68.0,90,82,8.05,49.79,-92.84
476,Newport,GB,1532355600,73.56,80.6,90,78,12.75,51.59,-3.0
477,Hearst,CA,1532356496,66.7,66.7,88,56,3.58,49.69,-83.67
478,Dudinka,RU,1532356496,52.39,52.39,0,45,18.68,69.41,86.18
479,Comodoro Rivadavia,AR,1532354400,50.0,50.0,0,80,24.16,-45.87,-67.48
480,Methoni,GR,1532353800,93.2,93.2,40,32,18.34,36.82,21.7
481,Ekhabi,RU,1532356497,49.69,49.69,24,99,7.94,53.51,142.97
482,Dubti,ET,1532356497,96.4,96.4,24,30,2.13,11.74,41.09
483,Paramonga,PE,1532356497,63.19,63.19,64,96,4.36,-10.68,-77.82
484,Saint-Francois,FR,1532354400,87.8,87.8,0,27,5.82,46.42,3.91
485,Tarbes,FR,1532354400,81.57,82.4,0,51,5.82,43.23,0.08
486,Lawton,US,1532355300,80.64,82.4,1,69,11.41,34.61,-98.39
487,Dicabisagan,PH,1532356498,73.72,73.72,80,100,7.49,17.08,122.42
488,Nador,MA,1532354400,82.22,84.2,0,54,13.87,35.17,-2.93
489,Chebenki,RU,1532354400,77.0,77.0,0,27,13.42,51.93,55.71
490,Mayo,CA,1532354400,59.0,59.0,75,62,6.93,63.59,-135.9
491,Madimba,CM,1532354400,84.2,84.2,40,79,5.82,4.42,9.93
492,Athabasca,CA,1532356500,58.51,58.51,0,87,6.6,54.72,-113.29
493,Yining,CN,1532356500,76.24,76.24,0,89,2.24,29.04,114.56
494,Nouadhibou,MR,1532354400,75.2,75.2,0,69,18.34,20.93,-17.03
495,Pacifica,US,1532354880,60.12,62.6,90,93,5.82,37.61,-122.49
496,Roald,NO,1532355600,65.14,66.2,75,77,4.7,62.58,6.12
497,Griffith,AU,1532356500,49.6,49.6,0,78,13.65,-34.29,146.06
498,Birao,CF,1532356501,84.7,84.7,0,75,11.18,10.3,22.78
499,Aasiaat,GL,1532356501,39.97,39.97,92,100,5.59,68.71,-52.87
500,Weston,US,1532355960,76.03,78.8,75,94,10.29,41.2,-73.38
501,Macae,BR,1532354400,78.71,80.6,40,65,8.05,-22.37,-41.79
502,Vallenar,CL,1532356502,61.84,61.84,0,67,3.02,-28.58,-70.76
503,Brownsville,US,1532353980,85.08,86.0,1,79,18.34,25.91,-97.49
504,Thul,PK,1532356502,95.32,95.32,32,53,5.59,28.24,68.77
505,Wainwright,CA,1532356274,57.97,57.97,56,77,7.72,52.84,-110.86
506,Coihaique,CL,1532354400,41.56,42.8,75,70,7.72,-45.58,-72.07
507,Peace River,CA,1532354400,51.8,51.8,75,71,6.93,56.23,-117.29
508,Alibag,IN,1532354400,81.84,82.4,90,88,13.87,18.64,72.88
509,Taywarah,AF,1532356503,75.25,75.25,92,23,5.03,33.35,64.42
510,Hofn,IS,1532354400,53.6,53.6,90,71,5.82,64.25,-15.21
511,Batagay,RU,1532356504,48.34,48.34,92,88,4.47,67.65,134.64
512,Saint-Augustin,FR,1532356200,86.99,87.8,0,35,4.7,44.83,-0.61
513,Marawi,PH,1532356504,68.5,68.5,92,98,1.23,8.0,124.29
514,Massena,US,1532355300,83.61,84.2,1,62,9.17,44.93,-74.89
515,Durazno,UY,1532350800,44.6,44.6,0,81,9.17,-33.38,-56.52
516,Aloleng,PH,1532356505,76.24,76.24,80,100,6.93,16.13,119.78
517,Sao Felix do Xingu,BR,1532356505,91.72,91.72,0,41,5.14,-6.64,-51.99
518,Shakawe,BW,1532356505,75.25,75.25,0,25,13.65,-18.36,21.84
519,Buckeye,US,1532354280,88.57,91.4,1,35,5.82,33.37,-112.58
520,Englewood,US,1532354280,66.6,69.8,75,77,4.14,39.65,-104.99
521,West Plains,US,1532355240,71.98,73.4,90,83,6.93,36.73,-91.85
522,Novonikolayevskiy,RU,1532356506,79.03,79.03,56,70,10.63,50.97,42.37
523,Umm Kaddadah,SD,1532356506,92.8,92.8,68,36,8.72,13.6,26.69
524,Cam Ranh,VN,1532356507,82.36,82.36,88,82,5.26,11.92,109.15
525,Manjacaze,MZ,1532356507,73.09,73.09,0,47,8.95,-24.71,33.88
526,Camopi,GF,1532356507,85.96,85.96,44,66,3.13,3.17,-52.33
527,Texarkana,US,1532353980,80.6,80.6,1,65,10.29,33.44,-94.04
528,Waipawa,NZ,1532356507,37.99,37.99,32,90,3.36,-39.94,176.59
529,Lorengau,PG,1532356508,81.37,81.37,76,100,8.16,-2.02,147.27
530,Malanje,AO,1532356508,79.39,79.39,0,32,5.26,-9.54,16.35
531,Grand Gaube,MU,1532354400,69.8,69.8,75,83,19.46,-20.01,57.66
532,Jadu,LY,1532356508,108.01,108.01,100,10,9.17,31.95,12.03
533,Shingu,JP,1532356508,84.43,84.43,0,87,5.82,33.72,135.99
534,Kandi,BJ,1532356509,90.19,90.19,12,74,6.38,11.13,2.93
535,Bedi,NG,1532356509,92.89,92.89,0,71,5.14,13.39,4.96
536,Abu Samrah,SY,1532356509,92.62,92.62,0,25,17.78,35.3,37.18
537,Igra,RU,1532356509,74.35,74.35,0,49,3.02,57.55,53.1
538,Singaraja,ID,1532352600,78.8,78.8,20,78,13.87,-8.11,115.08
539,Vega de Alatorre,MX,1532356509,82.99,82.99,0,65,4.36,20.03,-96.65
540,Tuy Hoa,VN,1532356510,83.17,83.17,68,81,15.43,13.08,109.3
541,Fukue,JP,1532354400,84.2,84.2,20,74,18.34,35.03,136.69
542,Kassala,SD,1532356510,78.49,78.49,80,86,5.7,15.45,36.38
543,Aguas Formosas,BR,1532356510,73.36,73.36,44,69,8.5,-17.08,-40.94
544,Rabat,MA,1532354400,73.4,73.4,40,64,10.29,34.02,-6.83
545,Coacoatzintla,MX,1532356511,72.73,72.73,0,45,1.12,19.65,-96.94
546,Taltal,CL,1532356511,61.84,61.84,20,82,1.57,-25.41,-70.49
547,Igarka,RU,1532356511,54.1,54.1,0,51,21.81,67.47,86.57
548,Elizabeth City,US,1532355300,76.17,82.4,75,88,12.75,36.3,-76.22
549,Horki,BY,1532350800,75.2,75.2,75,69,11.18,54.29,30.98
550,Islamkot,PK,1532356512,93.79,93.79,64,47,11.86,24.7,70.18
551,Orlik,RU,1532356512,53.02,53.02,64,74,1.68,52.51,99.83
552,Bubaque,GW,1532354400,84.2,84.2,75,74,10.29,11.28,-15.83
553,Saint-Paul,FR,1532354400,80.96,84.2,0,35,8.05,45.22,1.9
554,Goias,BR,1532356513,86.14,86.14,0,31,10.63,-15.93,-50.14
555,Borogontsy,RU,1532356513,56.62,56.62,88,83,4.47,62.67,131.17
556,Hobyo,SO,1532356513,80.83,80.83,44,64,25.84,5.35,48.53
557,Xinxiang,CN,1532356513,82.81,82.81,0,70,7.72,35.3,113.88
558,Tilichiki,RU,1532356513,49.06,49.06,88,99,3.58,60.47,166.1
559,Ancud,CL,1532356514,43.84,43.84,20,93,3.13,-41.87,-73.83
560,Muzhi,RU,1532356514,79.3,79.3,0,39,6.93,65.4,64.7
561,Bataipora,BR,1532356514,85.15,85.15,0,46,6.82,-22.3,-53.27
562,Cabedelo,BR,1532354400,80.6,80.6,75,65,16.11,-6.97,-34.84
563,Bochnia,PL,1532356200,80.6,80.6,20,44,13.87,49.97,20.43
564,Sosua,DO,1532354400,85.84,87.8,40,66,9.17,19.77,-70.52
565,Zanjan,IR,1532354400,86.0,86.0,75,28,16.11,36.67,48.48
566,Porto Torres,IT,1532353800,84.2,84.2,0,58,9.17,40.84,8.4
567,Inhambane,MZ,1532350800,75.2,75.2,75,57,10.29,-23.87,35.38
568,Moffat,GB,1532355600,69.35,73.4,40,64,11.41,55.33,-3.44
569,Daura,NG,1532356516,98.47,98.47,8,40,4.92,13.04,8.32
570,Makakilo City,US,1532354820,76.12,78.8,90,94,4.7,21.35,-158.09
571,Camocim,BR,1532356516,87.85,87.85,0,59,13.98,-2.9,-40.84
572,Cintalapa,MX,1532356516,75.97,75.97,8,78,3.13,16.7,-93.73
573,Sechura,PE,1532356517,70.03,70.03,12,82,6.49,-5.56,-80.82
574,Mabaruma,GY,1532356517,82.45,82.45,20,87,5.82,8.2,-59.78
575,Tall Kayf,TR,1532353800,103.26,104.0,20,16,11.41,37.08,41.07
576,Palu,ID,1532356518,67.78,67.78,56,93,1.34,-0.9,119.87
577,Coaldale,CA,1532354400,55.4,55.4,20,66,4.59,49.73,-112.62
578,Tupik,RU,1532356518,50.5,50.5,8,91,2.35,54.43,119.94
579,Shuangcheng,CN,1532354400,80.6,80.6,36,88,4.47,45.37,126.3
580,Talcahuano,CL,1532354400,46.4,46.4,0,52,11.41,-36.72,-73.12
581,Bagn,NO,1532356518,76.42,76.42,48,32,2.91,60.82,9.55
582,Mogadishu,SO,1532354400,80.6,80.6,75,78,17.22,2.04,45.34
583,Walvis Bay,NA,1532356519,67.87,67.87,0,76,13.2,-22.95,14.51
584,Magadan,RU,1532354400,50.0,50.0,76,93,0.67,59.56,150.8
585,Neiafu,TO,1532354400,64.4,64.4,40,93,9.95,-18.65,-173.98
586,Itoman,JP,1532354400,82.4,82.4,20,88,8.05,26.12,127.67
587,Pimentel,BR,1532356519,85.6,85.6,44,71,5.37,-3.7,-45.5
588,Flin Flon,CA,1532354400,60.8,60.8,90,93,6.93,54.77,-101.88
589,Nurlat,RU,1532356520,66.97,66.97,88,53,8.61,54.43,50.8
590,Mawlaik,MM,1532356520,72.19,72.19,92,99,0.89,23.63,94.42
591,Oxilithos,GR,1532353800,87.8,87.8,0,58,14.99,38.58,24.12
592,Plettenberg Bay,ZA,1532356520,74.35,74.35,0,67,5.26,-34.05,23.37
593,Yorkton,CA,1532354400,59.0,59.0,8,77,14.99,51.21,-102.46
594,Borskoye,RU,1532356521,69.76,69.76,32,65,8.72,53.03,51.7
595,Cotonou,BJ,1532354400,82.4,82.4,20,78,13.87,6.37,2.43
596,Chicago,US,1532355300,72.73,73.4,1,78,5.82,41.88,-87.62
597,Victor Harbor,AU,1532354400,55.4,55.4,20,82,14.99,-35.55,138.62
598,Mount Gambier,AU,1532356521,51.04,51.04,64,84,11.63,-37.83,140.78
599,Gari,RU,1532356521,75.7,75.7,0,56,3.8,59.43,62.35
600,Ternate,PH,1532354400,78.8,78.8,75,100,6.93,14.29,120.72
601,Doha,QA,1532354400,107.6,107.6,0,14,16.11,25.29,51.53
602,Ler,NO,1532355600,67.05,68.0,75,64,4.7,63.2,10.3
603,Loiza,PR,1532354160,83.34,84.2,40,78,14.99,18.43,-65.88
604,Chupa,PE,1532354400,42.8,42.8,0,45,3.36,-15.11,-69.99
605,Maunabo,PR,1532354160,83.34,84.2,40,78,14.99,18.01,-65.9
606,Aksarka,RU,1532356523,79.12,79.12,12,32,9.84,66.56,67.8
607,Hervey Bay,AU,1532356523,62.11,62.11,0,99,5.59,-25.3,152.85
608,Ormara,PK,1532356523,83.17,83.17,76,88,11.97,25.21,64.64
609,Borba,PT,1532354400,91.4,91.4,0,22,10.29,38.81,-7.46
610,Huicungo,PE,1532354400,71.6,71.6,75,94,1.34,-7.28,-76.8
611,Yabrud,SY,1532354400,95.0,95.0,0,19,27.51,33.97,36.66
612,Vanavara,RU,1532356524,53.92,53.92,68,71,4.36,60.35,102.28
613,Udachnyy,RU,1532356524,53.02,53.02,20,73,4.7,66.42,112.4
614,Kadoshkino,RU,1532356524,60.94,60.94,92,99,13.09,54.03,44.42
615,Yongchang,CN,1532356524,55.81,55.81,0,87,2.68,38.06,102.59
616,Coahuayana,MX,1532356525,79.3,79.3,8,57,2.8,18.62,-100.35
617,Kloulklubed,PW,1532353860,80.55,82.4,90,78,5.82,7.04,134.26
618,Kanye,BW,1532356525,65.44,65.44,8,40,12.97,-24.98,25.34
619,Cape Coast,GH,1532356525,83.17,83.17,80,74,6.15,5.11,-1.24
620,Dzaoudzi,YT,1532354400,78.8,78.8,20,65,17.22,-12.79,45.27
621,Willowmore,ZA,1532356525,72.91,72.91,0,20,8.84,-33.3,23.49
622,Bathsheba,BB,1532354400,86.0,86.0,40,66,20.8,13.22,-59.52
623,Dongsheng,CN,1532356526,83.44,83.44,0,85,2.91,29.72,112.52
624,Kysyl-Syr,RU,1532356526,52.39,52.39,64,81,4.14,63.9,122.77
625,Brunico,IT,1532353800,77.61,87.8,20,23,9.17,46.8,11.94
626,Grand Forks,US,1532355300,67.28,68.0,1,82,9.17,47.91,-97.06
627,Benghazi,LY,1532352600,98.6,98.6,0,11,13.87,32.12,20.07
628,Tigil,RU,1532356527,62.2,62.2,20,65,4.59,57.8,158.67
629,Touros,BR,1532356527,80.92,80.92,44,76,20.8,-5.2,-35.46
630,Cairns,AU,1532354400,69.8,69.8,20,83,8.05,-16.92,145.77
631,Aksum,ET,1532356527,63.1,63.1,88,96,3.02,14.12,38.72
632,Oussouye,SN,1532354400,87.8,87.8,75,79,11.41,12.49,-16.54
633,Haimen,CN,1532356528,81.64,81.64,92,95,15.77,31.87,121.18
634,Salta,AR,1532354400,45.82,48.2,90,52,4.7,-24.79,-65.41
635,Carrollton,US,1532354160,73.99,77.0,75,83,5.82,33.58,-85.08
636,Hojai,IN,1532356528,78.22,78.22,92,93,1.12,26.0,92.85
637,Paita,PE,1532350800,66.2,66.2,75,88,11.41,-5.09,-81.11
638,Salinas,US,1532354700,58.55,60.8,90,93,4.7,36.67,-121.66
639,Zeerust,ZA,1532354400,68.0,68.0,0,38,10.29,-25.54,26.07
640,Sur,OM,1532356529,94.6,94.6,56,69,10.51,22.57,59.53
641,Bani Walid,LY,1532356529,111.97,111.97,76,9,6.6,31.76,14.0
642,Ukiah,US,1532354160,62.6,62.6,1,72,3.36,39.15,-123.21
643,Colac,AU,1532356529,50.14,50.14,92,98,11.41,-38.34,143.59
644,Kudahuvadhoo,MV,1532356309,79.84,79.84,88,100,21.03,2.67,72.89
645,Bilibino,RU,1532356530,62.2,62.2,56,66,6.49,68.06,166.44
646,Marystown,CA,1532356345,64.0,64.0,92,84,14.43,47.17,-55.16
647,Teguise,ES,1532356200,77.0,77.0,20,69,14.99,29.06,-13.56
648,Byron Bay,AU,1532354400,50.0,50.0,0,93,4.7,-28.65,153.62
649,Andijan,UZ,1532356530,91.09,91.09,0,23,13.2,40.76,72.37
650,Goundam,ML,1532356530,100.0,100.0,8,42,4.36,16.42,-3.66
651,Vincennes,US,1532355300,70.52,71.6,90,78,4.7,38.68,-87.53
652,Tingi,TZ,1532356531,71.02,71.02,80,100,9.06,-11.3,35.03
653,Keti Bandar,PK,1532356531,82.99,82.99,12,96,18.23,24.14,67.45
654,Lakes Entrance,AU,1532356531,52.3,52.3,0,74,9.17,-37.88,147.99
655,Oromocto,CA,1532354400,77.0,77.0,75,83,11.41,45.85,-66.47
656,Nola,CF,1532356531,83.26,83.26,56,67,2.46,3.52,16.05
657,San Vicente,SV,1532353800,79.7,84.2,0,88,5.82,13.64,-88.78
658,Baherden,TM,1532356532,98.83,98.83,56,24,4.81,38.44,57.43
659,Luanda,AO,1532354400,75.2,75.2,0,73,8.05,-8.83,13.24
660,Shobara,JP,1532354400,82.4,82.4,75,74,5.82,34.92,133.05
661,Aitape,PG,1532356533,81.1,81.1,80,94,5.82,-3.15,142.36
662,Katobu,ID,1532356533,76.78,76.78,8,100,6.71,-4.94,122.53
663,La Paz,MX,1532353200,75.2,75.2,20,73,12.75,24.15,-110.32
664,Takoradi,GH,1532356533,79.03,79.03,64,93,8.16,4.89,-1.75
665,Aranos,NA,1532356533,71.92,71.92,20,26,13.31,-24.14,19.11
666,Morondava,MG,1532356534,81.55,81.55,0,50,10.4,-20.3,44.28
667,Sept-Iles,CA,1532354400,68.0,68.0,75,82,3.36,50.2,-66.38
668,Alamosa,US,1532353920,62.6,62.6,1,67,6.93,37.47,-105.87
669,Lubango,AO,1532356534,77.14,77.14,0,48,1.34,-14.92,13.49
670,Carbonia,IT,1532353800,86.0,86.0,20,40,20.8,39.17,8.53
671,Southbridge,US,1532355060,77.54,80.6,90,83,11.41,42.08,-72.03
672,Praia,BR,1532354400,70.16,71.6,40,56,12.75,-20.25,-43.81
673,Fez,MA,1532354400,96.8,96.8,0,30,10.29,34.03,-5.02
674,Pangody,RU,1532356535,77.5,77.5,0,32,13.76,65.85,74.49
675,Luyang,CN,1532354400,86.0,86.0,0,79,6.71,31.88,117.26
676,Medea,DZ,1532354400,87.8,87.8,0,58,14.99,36.27,2.77
677,Nanakuli,US,1532354820,76.12,78.8,90,94,4.7,21.39,-158.15
678,Alekseyevsk,RU,1532356536,46.54,46.54,0,93,3.69,57.84,108.35
679,Namatanai,PG,1532356536,78.76,78.76,80,100,13.98,-3.66,152.44
680,Shitanjing,CN,1532356536,59.5,59.5,44,98,2.24,39.23,106.34
681,Rabo de Peixe,PT,1532354400,80.6,80.6,20,61,11.41,37.8,-25.58
682,Wuda,CN,1532356536,62.29,62.29,92,97,6.38,39.5,106.72
683,Cap Malheureux,MU,1532354400,69.8,69.8,75,83,19.46,-19.98,57.61
684,Nizhnyaya Tavda,RU,1532356537,75.61,75.61,48,51,16.78,57.67,66.17
685,Shamary,RU,1532356537,74.98,74.98,0,45,6.15,57.34,58.22
686,Tongliao,CN,1532356537,80.74,80.74,76,73,10.63,43.61,122.27
687,Viransehir,TR,1532356538,95.32,95.32,0,21,7.83,37.24,39.76
688,Karaton,ID,1532352600,82.4,82.4,40,83,2.24,-6.34,106.1
689,Rundu,NA,1532356538,76.15,76.15,0,22,17.0,-17.91,19.77
690,Meulaboh,ID,1532356538,80.74,80.74,0,100,3.58,4.14,96.13
691,Temecula,US,1532354400,70.41,75.2,1,88,2.8,33.49,-117.15
692,Kiruna,SE,1532355600,71.6,71.6,0,40,11.41,67.86,20.23
693,Sainte-Marie,CA,1532354460,68.0,68.0,90,94,10.29,46.45,-71.03
694,Ballina,IE,1532354400,62.6,62.6,75,93,9.17,54.11,-9.15
695,Christiana,ZA,1532356539,66.25,66.25,36,34,8.95,-27.91,25.16
696,Fare,PF,1532356540,79.93,79.93,8,97,11.41,-16.7,-151.02
697,Batemans Bay,AU,1532356540,52.66,52.66,68,74,8.72,-35.71,150.18
698,Triesenberg,AT,1532355600,76.03,77.0,0,57,3.36,47.12,9.54
699,Mikhaylovka,RU,1532356540,62.29,62.29,12,91,2.35,52.96,103.29
700,Moletai,LT,1532355600,73.4,73.4,75,83,11.41,55.23,25.42
701,Natal,BR,1532354400,84.2,84.2,40,45,24.16,-5.81,-35.21
702,Valdivia,CL,1532354400,33.8,33.8,90,100,3.36,-39.81,-73.25
703,Dubna,RU,1532356390,72.19,72.19,64,66,12.19,56.76,37.14
704,Mweka,CD,1532356541,94.6,94.6,0,17,6.93,-4.85,21.56
705,Puerto Leguizamo,CO,1532356541,77.32,77.32,32,88,3.13,-0.19,-74.78
706,Zomin,UZ,1532356542,89.38,89.38,0,30,6.15,39.96,68.4
707,Mont-Dore,NC,1532354400,62.6,62.6,90,93,2.24,-22.23,166.53
708,Awjilah,LY,1532356542,106.39,106.39,0,19,4.25,29.14,21.3
709,Warrnambool,AU,1532356502,54.01,54.01,80,96,25.17,-38.38,142.48
710,Xining,CN,1532356542,46.81,46.81,0,90,0.56,36.62,101.77
711,San Jeronimo,PE,1532350800,46.4,46.4,40,61,2.01,-13.65,-73.37
712,Moss Point,US,1532354160,81.21,86.0,20,78,4.7,30.41,-88.53
713,Yurgamysh,RU,1532356543,74.62,74.62,88,49,20.47,55.37,64.47
714,Tommot,RU,1532356543,51.94,51.94,92,80,2.35,58.97,126.27
715,Shenjiamen,CN,1532356543,81.01,81.01,92,98,20.92,29.96,122.3
716,Okhotsk,RU,1532356543,53.56,53.56,12,98,2.13,59.36,143.24
717,Khandyga,RU,1532356544,55.45,55.45,100,93,2.91,62.65,135.58
718,Aleksandrovsk-Sakhalinskiy,RU,1532356544,52.57,52.57,32,100,2.91,50.9,142.16
719,La Asuncion,EC,1532354400,55.4,55.4,75,87,3.36,-1.64,-78.74
720,Mareeba,AU,1532354400,69.8,69.8,20,83,8.05,-16.99,145.42
721,Pangnirtung,CA,1532354400,44.6,44.6,90,100,3.36,66.15,-65.72
722,Buraydah,SA,1532354400,111.2,111.2,0,16,8.05,26.33,43.97
723,Fermoy,IE,1532354400,69.8,69.8,75,73,12.75,52.14,-8.28
724,Pangai,TO,1532356545,75.97,75.97,36,100,5.14,-19.8,-174.35
725,Richards Bay,ZA,1532356545,74.62,74.62,0,47,12.53,-28.77,32.06
726,George Enescu,RO,1532354940,73.4,73.4,40,69,13.42,48.04,26.49
727,Beloha,MG,1532356545,66.25,66.25,0,55,18.23,-25.17,45.06
728,Basco,US,1532355300,72.3,73.4,1,83,4.7,40.33,-91.2
729,Beringovskiy,RU,1532356546,48.7,48.7,64,100,3.69,63.05,179.32
730,Tucupita,VE,1532356546,81.19,81.19,100,86,4.03,9.06,-62.05
731,Sande,DE,1532355600,82.4,82.4,0,30,6.93,51.76,8.66
732,Balkhash,KZ,1532356546,71.02,71.02,0,89,13.65,46.84,74.98
733,Nabire,ID,1532356547,67.69,67.69,88,95,2.13,-3.36,135.5
734,Luau,CD,1532356547,79.48,79.48,0,24,5.14,-10.7,22.23
735,Kurduvadi,IN,1532356547,75.43,75.43,68,83,13.53,18.09,75.41
736,Asosa,ET,1532356547,71.11,71.11,44,87,3.24,10.07,34.53
737,Vestmanna,FO,1532355600,51.8,51.8,64,93,10.29,62.16,-7.17
738,Progreso,UY,1532354400,50.0,50.0,75,61,16.11,-34.68,-56.22
739,Sorland,NO,1532355600,57.9,59.0,75,77,17.22,67.67,12.69
740,Chipata,ZM,1532356548,67.69,67.69,64,48,14.65,-13.64,32.65
741,Malard,IR,1532354400,104.63,107.6,20,10,16.11,35.67,50.98
742,Ambilobe,MG,1532356548,76.6,76.6,0,50,18.45,-13.19,49.05
743,Samana,EC,1532354400,73.4,73.4,75,88,2.24,0.12,-76.97
744,Dzilam Gonzalez,MX,1532356549,85.24,85.24,0,80,3.69,21.28,-88.93
745,Kalmunai,LK,1532356549,78.67,78.67,8,89,2.91,7.42,81.82
746,Kankakee,US,1532355300,71.85,73.4,1,78,6.93,41.12,-87.86
747,Vila do Maio,CV,1532354400,82.4,82.4,20,65,17.22,15.13,-23.22
748,Zabol,IR,1532354400,114.8,114.8,0,8,13.87,31.03,61.49
749,Nong Ki,TH,1532354400,80.6,80.6,44,83,12.19,14.69,102.54
750,Boddam,GB,1532355600,77.0,77.0,88,53,12.75,57.47,-1.78
751,Groa,FR,1532354400,73.42,77.0,75,64,9.17,48.67,-4.14
752,Caldwell,US,1532355300,63.54,66.2,1,55,6.38,43.67,-116.69
753,Parambu,BR,1532356550,86.23,86.23,0,38,14.54,-6.21,-40.7
754,Tarko-Sale,RU,1532356550,69.22,69.22,0,41,11.86,64.92,77.78
755,Gombong,ID,1532356551,70.57,70.57,44,89,2.8,-7.19,109.31
756,Nizwa,OM,1532356551,100.36,100.36,0,25,4.47,22.93,57.53
757,Lethem,GY,1532356551,79.12,79.12,64,100,4.7,3.38,-59.8
758,Marathon,CA,1532354400,66.2,66.2,75,59,5.82,48.72,-86.38
759,Sembakung,ID,1532356551,77.77,77.77,32,95,1.9,3.82,117.25
760,Twentynine Palms,US,1532354160,90.91,93.2,1,27,5.82,34.14,-116.05
761,Altamont,CA,1532355300,65.26,66.2,1,93,6.93,49.4,-98.5
762,Otane,NZ,1532356552,32.32,32.32,0,77,3.24,-39.89,176.62
763,Kendari,ID,1532356552,70.12,70.12,56,99,1.57,-3.99,122.52
764,Nicoya,CR,1532354400,77.0,77.0,75,88,6.93,10.15,-85.45
765,Bousse,FR,1532356200,83.3,84.2,0,37,3.36,49.28,6.2
766,Gamba,CN,1532356553,35.02,35.02,92,100,2.13,28.28,88.52
767,Peniche,PT,1532354400,75.65,78.8,20,60,11.41,39.36,-9.38
768,Debre Tabor,ET,1532356553,59.95,59.95,92,99,3.69,11.86,38.01
769,Vytegra,RU,1532356553,77.59,77.59,76,55,8.72,61.01,36.45
770,San Quintin,PH,1532356553,73.27,73.27,100,93,3.36,17.54,120.52
771,Rosetown,CA,1532356553,60.49,60.49,0,76,10.29,51.55,-107.99
772,Mattru,SL,1532356554,81.91,81.91,64,92,4.36,7.62,-11.83
773,Pacific Grove,US,1532354700,58.57,60.8,90,100,4.7,36.62,-121.92
774,Abha,SA,1532354400,65.26,66.2,75,82,11.41,18.22,42.5
775,Port Hedland,AU,1532354400,68.0,68.0,90,77,6.93,-20.31,118.58
776,Lodja,CD,1532356554,93.52,93.52,8,18,6.82,-3.52,23.6
777,Kaseda,JP,1532356555,81.64,81.64,0,99,3.02,31.42,130.32
778,Baghdad,IQ,1532354400,107.6,107.6,20,17,9.17,33.3,44.38
779,Sao Francisco do Sul,BR,1532350800,62.6,62.6,0,88,2.24,-26.24,-48.64
780,Moron,VE,1532354400,80.6,80.6,75,69,3.13,10.49,-68.2
781,Nemuro,JP,1532356555,57.97,57.97,80,100,3.58,43.32,145.57
782,Kandrian,PG,1532356555,71.02,71.02,92,100,2.35,-6.21,149.55
783,Havoysund,NO,1532355600,64.4,64.4,75,68,4.7,71.0,24.66
784,Nevers,FR,1532356200,85.23,86.0,0,28,5.82,46.99,3.16
785,Sanandaj,IR,1532350800,95.0,95.0,20,19,9.17,35.31,47.0
786,Kodinsk,RU,1532356513,51.94,51.94,0,84,2.35,58.6,99.18
787,Sao Raimundo das Mangabeiras,BR,1532356556,91.09,91.09,0,33,13.65,-7.02,-45.48
788,Kurchum,KZ,1532356556,65.53,65.53,88,100,3.69,48.57,83.65
789,Champerico,MX,1532353440,77.0,77.0,20,78,2.91,16.38,-93.6
790,Corinto,BR,1532356557,75.79,75.79,12,64,6.6,-18.36,-44.46
791,Vinh Long,VN,1532356557,80.65,80.65,80,84,9.17,10.25,105.97
792,Manbij,SY,1532353800,96.8,96.8,0,16,10.29,36.53,37.96
793,Oskemen,KZ,1532354400,59.0,59.0,90,100,11.18,49.96,82.61
794,Nishihara,JP,1532354400,84.2,84.2,1,66,3.36,35.74,139.53
795,Nhulunbuy,AU,1532354400,71.6,71.6,0,94,5.82,-12.18,136.78
796,Dunedin,NZ,1532356558,39.25,39.25,92,100,4.25,-45.87,170.5
797,Mbala,ZM,1532356558,72.55,72.55,0,26,12.41,-8.85,31.37
798,Zhigansk,RU,1532356558,54.46,54.46,8,68,5.59,66.77,123.37
799,Sweetwater,US,1532355300,85.01,87.8,1,27,8.05,32.47,-100.41
800,Celestun,MX,1532356559,82.9,82.9,0,99,9.4,20.87,-90.4
801,Presidencia Roque Saenz Pena,AR,1532356559,54.55,54.55,24,76,18.23,-26.79,-60.44
802,Santiago,CL,1532354400,38.28,41.0,0,60,1.01,-33.44,-70.65
803,Alice Springs,AU,1532354400,59.0,59.0,0,28,5.82,-23.7,133.88
804,Stromness,CA,1532354400,78.01,80.6,75,69,6.93,42.87,-79.55
805,Kostomuksha,RU,1532356560,77.77,77.77,20,46,5.93,64.59,30.6
806,Shelburne,CA,1532354460,75.81,77.0,75,78,6.93,44.08,-80.2
807,Novokayakent,RU,1532354400,80.6,80.6,40,69,8.95,42.39,47.99
808,Uglegorskiy,RU,1532356561,80.74,80.74,48,64,6.26,48.24,41.25
809,Toora-Khem,RU,1532356561,57.07,57.07,0,81,2.57,52.47,96.11
810,Makat,KZ,1532356562,88.84,88.84,36,24,14.32,47.65,53.35
811,Glace Bay,CA,1532354400,80.6,80.6,75,69,17.22,46.2,-59.96
812,Limbang,BN,1532352600,82.94,84.2,75,83,1.12,4.75,115.01
813,Bluefield,US,1532354100,67.77,71.6,90,93,3.36,37.27,-81.22
814,Keita,NG,1532354400,83.03,84.2,75,79,6.93,7.1,3.65
815,El Tocuyo,VE,1532354400,73.4,73.4,90,94,3.36,9.79,-69.8
816,Palembang,ID,1532352600,82.4,82.4,40,78,8.05,-2.99,104.76
817,Qeshm,IR,1532354400,96.75,98.6,0,60,13.87,26.96,56.27
